[
  {
    "name": "Liberty Grill",
    "tagline": "Best burgers in Pune",
    "cuisines": [
      "Mexican",
      "Salad",
      "Fast Food"
    ],
    "branches": [
      {
        "area": "Wadgaon Sheri",
        "mapsUrl": "https://maps.app.goo.gl/jQJemMwLdQzDRQTeA",
        "lat": 18.548967,
        "lng": 73.9149296
      }
    ]
  },
  {
    "name": "Kebabbest",
    "tagline": "",
    "cuisines": [
      "Kebab",
      "North Indian"
    ],
    "branches": [
      {
        "area": "Camp",
        "mapsUrl": "https://maps.app.goo.gl/s4TipT9aWp1FvKJX9",
        "lat": 18.5216239,
        "lng": 73.8717527
      }
    ]
  },
  {
    "name": "Klinq",
    "tagline": "",
    "cuisines": [
      "North Indian",
      "European",
      "Asian",
      "Continental",
      "Italian",
      "Lebanese",
      "Bar Food",
      "Desserts"
    ],
    "branches": [
      {
        "area": "Viman Nagar",
        "mapsUrl": "https://maps.app.goo.gl/XcfSq5WqsMCiAVAd7",
        "lat": 18.5703877,
        "lng": 73.9133336
      }
    ]
  },
  {
    "name": "Sunmoi",
    "tagline": "",
    "cuisines": [
      "Chinese",
      "Thai"
    ],
    "branches": [
      {
        "area": "Dhole Patil Road",
        "mapsUrl": "https://maps.app.goo.gl/CffMmkxcws2QCXGq6",
        "lat": 18.534898,
        "lng": 73.8767171
      }
    ]
  },
  {
    "name": "Chung Fa",
    "tagline": "",
    "cuisines": [
      "Chinese",
      "Sichuan"
    ],
    "branches": [
      {
        "area": "Camp",
        "mapsUrl": "https://maps.app.goo.gl/FnSPQce2u3ueaGCd7",
        "lat": 18.5216239,
        "lng": 73.8717527
      }
    ]
  },
  {
    "name": "Uncle Chinese",
    "tagline": "",
    "cuisines": [
      "Chinese",
      "Momos",
      "Seafood",
      "Thai",
      "Sichuan",
      "Desserts",
      "Beverages",
      "Asian"
    ],
    "branches": [
      {
        "area": "Lullnagar",
        "mapsUrl": "https://maps.app.goo.gl/PztfHLCfwuhiZoLQ7"
      },
      {
        "area": "Camp",
        "mapsUrl": "https://maps.app.goo.gl/6obUsM4HQ4M4AbmQ7",
        "lat": 18.5216239,
        "lng": 73.8717527
      },
      {
        "area": "Bavdhan",
        "mapsUrl": "https://maps.app.goo.gl/68q8pWxeUVtCqRUL9",
        "lat": 18.5209541,
        "lng": 73.7780873
      },
      {
        "area": "Koregaon Park",
        "mapsUrl": "https://maps.app.goo.gl/LEqaan4Miwta8jt6A",
        "lat": 18.5366225,
        "lng": 73.8932738
      },
      {
        "area": "Viman Nagar",
        "mapsUrl": "https://maps.app.goo.gl/Jnah2jqbBaYK8spa6",
        "lat": 18.5703877,
        "lng": 73.9133336
      },
      {
        "area": "Hinjewadi",
        "mapsUrl": "https://maps.app.goo.gl/bXcDKRyWY2BGm96V7",
        "lat": 18.5924098,
        "lng": 73.7607009
      }
    ]
  },
  {
    "name": "Pimplico",
    "tagline": "",
    "cuisines": [
      "Cafe",
      "Tea",
      "Beverages",
      "Italian",
      "Continental",
      "Thai",
      "North Indian",
      "Fast Food"
    ],
    "branches": [
      {
        "area": "Royale Heritage Mall, Mohammadwadi",
        "mapsUrl": "https://maps.app.goo.gl/pr2rxqhwuog3CpzL8"
      },
      {
        "area": "Koregaon Park",
        "mapsUrl": "https://maps.app.goo.gl/NKYwzQaZNnNpdKmj6",
        "lat": 18.5366225,
        "lng": 73.8932738
      },
      {
        "area": "Kothrud, Erandwane",
        "mapsUrl": "https://maps.app.goo.gl/sSwqCQGS6hApAVzS7",
        "lat": 18.4984773,
        "lng": 73.8191685
      }
    ]
  },
  {
    "name": "Camden Lane",
    "tagline": "",
    "cuisines": [
      "Continental",
      "Mexican",
      "Coffee",
      "Tea"
    ],
    "branches": [
      {
        "area": "Koregaon Park",
        "mapsUrl": "https://maps.app.goo.gl/ev3k8SAhDRfRxnAw6",
        "lat": 18.5366225,
        "lng": 73.8932738
      }
    ]
  },
  {
    "name": "Taco Bell",
    "tagline": "",
    "cuisines": [
      "Mexican"
    ],
    "branches": [
      {
        "area": "Deccan Gymkhana",
        "mapsUrl": "https://maps.app.goo.gl/KnMTTPwSpefVsnPp6",
        "lat": 18.5158926,
        "lng": 73.84116
      },
      {
        "area": "Seasons Mall",
        "mapsUrl": "https://maps.app.goo.gl/XFGXBABr147Af28o7",
        "lat": 18.5190349,
        "lng": 73.9312884
      },
      {
        "area": "Kalyani Nagar",
        "mapsUrl": "https://maps.app.goo.gl/sTaMBnTitpi9JwrM9",
        "lat": 18.5481382,
        "lng": 73.9025513
      },
      {
        "area": "Phoenix Marketcity, Viman Nagar",
        "mapsUrl": "https://maps.app.goo.gl/P6uFXPsTz7xfp1Vo8",
        "lat": 18.5620429,
        "lng": 73.916663
      },
      {
        "area": "Westend Mall, Aundh",
        "mapsUrl": "https://maps.app.goo.gl/dRpekWX44J3Kzcih8",
        "lat": 18.5616546,
        "lng": 73.8068193
      },
      {
        "area": "Balewadi High St, Laxman Nagar",
        "mapsUrl": "https://maps.app.goo.gl/yvmC9HotSFRrtFtw7"
      },
      {
        "area": "Pimpri-Chinchwad",
        "mapsUrl": "https://maps.app.goo.gl/R6xZ1uXczg8H3j3B6",
        "lat": 18.6279288,
        "lng": 73.8009829
      },
      {
        "area": "Hinjewadi",
        "mapsUrl": "https://maps.app.goo.gl/UUSUvmKmM1QNwe1L8",
        "lat": 18.5924098,
        "lng": 73.7607009
      }
    ]
  },
  {
    "name": "Nothing but Chicken",
    "tagline": "",
    "cuisines": [
      "Salad",
      "Fast Food",
      "Wraps",
      "Kebab"
    ],
    "branches": [
      {
        "area": "Viman Nagar",
        "mapsUrl": "https://maps.app.goo.gl/1ksndexmANBceuog7",
        "lat": 18.5703877,
        "lng": 73.9133336
      },
      {
        "area": "Wanwadi",
        "mapsUrl": "https://maps.app.goo.gl/NZgkZt5aXHH251HD9",
        "lat": 18.4880464,
        "lng": 73.8937064
      },
      {
        "area": "Kothrud",
        "mapsUrl": "https://maps.app.goo.gl/um3W8FxMXdDVWSdQ9",
        "lat": 18.5072618,
        "lng": 73.8056676
      },
      {
        "area": "Wakad",
        "mapsUrl": "https://maps.app.goo.gl/xiqnPYP8WWeFwyCg8",
        "lat": 18.6022495,
        "lng": 73.7644454
      },
      {
        "area": "Baner",
        "mapsUrl": "https://maps.app.goo.gl/mBZJP3X2raBibzwc8",
        "lat": 18.5589937,
        "lng": 73.7845232
      }
    ]
  },
  {
    "name": "Marrakesh",
    "tagline": "",
    "cuisines": [
      "North Indian",
      "Lebanese",
      "Mughlai",
      "Shawarma",
      "Biryani",
      "Rolls"
    ],
    "branches": [
      {
        "area": "NIBM Road",
        "mapsUrl": "https://www.google.com/maps?q=18.4628302277,73.9127017558",
        "lat": 18.4631076,
        "lng": 73.9116173
      }
    ]
  },
  {
    "name": "Habibi Ya Fatayer",
    "tagline": "",
    "cuisines": [
      "Middle Eastern",
      "Asian Fusion",
      "American"
    ],
    "branches": [
      {
        "area": "NIBM Road",
        "mapsUrl": "https://www.google.com/maps/search/Ya+Habibi+Fatayer+NIBM+Road+Pune",
        "lat": 18.4631076,
        "lng": 73.9116173
      }
    ]
  },
  {
    "name": "Kimling",
    "tagline": "",
    "cuisines": [
      "Chinese"
    ],
    "branches": [
      {
        "area": "Kondhwa",
        "mapsUrl": "https://www.google.com/maps/search/Kimling+Chinese+Restaurant+Kondhwa+Pune",
        "lat": 18.4779905,
        "lng": 73.8940627
      }
    ]
  },
  {
    "name": "Mocha",
    "tagline": "",
    "cuisines": [
      "Chinese",
      "North Indian",
      "Fast Food"
    ],
    "branches": [
      {
        "area": "Salunke Vihar",
        "mapsUrl": "https://www.google.com/maps/search/Mocha+restaurant+Salunke+Vihar+Pune"
      }
    ]
  },
  {
    "name": "Pandan Kitchen",
    "tagline": "",
    "cuisines": [
      "Indonesian",
      "Southeast Asian"
    ],
    "branches": [
      {
        "area": "NIBM, Kondhwa",
        "mapsUrl": "https://www.google.com/maps/search/Pandan+Kitchen+NIBM+Road+Kondhwa+Pune",
        "lat": 18.4642045,
        "lng": 73.9029445
      }
    ]
  },
  {
    "name": "Grand Delhi Darbar",
    "tagline": "",
    "cuisines": [
      "Chinese",
      "North Indian",
      "Biryani"
    ],
    "branches": [
      {
        "area": "Camp",
        "mapsUrl": "https://www.google.com/maps/search/Grand+Dilli+Darbar+Camp+Pune",
        "lat": 18.5216239,
        "lng": 73.8717527
      }
    ]
  },
  {
    "name": "Persian Darbar",
    "tagline": "",
    "cuisines": [
      "Persian",
      "Chinese",
      "North Indian"
    ],
    "branches": [
      {
        "area": "Camp",
        "mapsUrl": "https://www.google.com/maps/search/Persian+Darbar+Camp+Pune",
        "lat": 18.5216239,
        "lng": 73.8717527
      }
    ]
  },
  {
    "name": "Gareeb Nawaz",
    "tagline": "",
    "cuisines": [
      "North Indian",
      "Mughlai",
      "Biryani",
      "Kebab"
    ],
    "branches": [
      {
        "area": "Kausar Bagh",
        "mapsUrl": "https://www.google.com/maps/search/Gareeb+Nawaz+Kausar+Bagh+Pune"
      }
    ]
  },
  {
    "name": "Grand Darbar",
    "tagline": "",
    "cuisines": [
      "North Indian"
    ],
    "branches": [
      {
        "area": "Kausar Bagh",
        "mapsUrl": "https://www.google.com/maps/search/Grand+Darbar+Kausar+Bagh+Pune"
      }
    ]
  },
  {
    "name": "Supreme",
    "tagline": "",
    "cuisines": [
      "Chinese",
      "Continental",
      "North Indian"
    ],
    "branches": [
      {
        "area": "Kausar Bagh",
        "mapsUrl": "https://maps.app.goo.gl/SmoAoRzrHeBJAmVh6"
      }
    ]
  },
  {
    "name": "Masala Times",
    "tagline": "",
    "cuisines": [
      "North Indian",
      "Chinese",
      "Biryani"
    ],
    "branches": [
      {
        "area": "Camp",
        "mapsUrl": "https://maps.app.goo.gl/MHKbXk7nKFrwsBE76",
        "lat": 18.5216239,
        "lng": 73.8717527
      }
    ]
  },
  {
    "name": "Spice Culture",
    "tagline": "",
    "cuisines": [
      "North Indian",
      "Biryani"
    ],
    "branches": [
      {
        "area": "Kondhwa",
        "mapsUrl": "https://maps.app.goo.gl/xZpKpJbRjooVQMEVA",
        "lat": 18.4779905,
        "lng": 73.8940627
      }
    ]
  },
  {
    "name": "Balsam",
    "tagline": "",
    "cuisines": [
      "Continental",
      "Desserts"
    ],
    "branches": [
      {
        "area": "Kondhwa",
        "mapsUrl": "https://maps.app.goo.gl/xjDhXREV7akTYDLZA",
        "lat": 18.4779905,
        "lng": 73.8940627
      },
      {
        "area": "Salunke Vihar Road",
        "mapsUrl": "https://www.google.com/maps/search/Balsam+Cafe+Kitchen+Salunke+Vihar+Road+Pune"
      }
    ]
  },
  {
    "name": "Arabian Mandi",
    "tagline": "",
    "cuisines": [
      "Middle Eastern",
      "Chinese",
      "Biryani"
    ],
    "branches": [
      {
        "area": "Kausar Bagh",
        "mapsUrl": "https://maps.app.goo.gl/FQQm44XyA46Pxt9LA"
      }
    ]
  },
  {
    "name": "Qehhwa Cafe",
    "tagline": "",
    "cuisines": [
      "Cafe",
      "Coffee",
      "Sandwich",
      "Desserts",
      "Pizza",
      "Pasta",
      "Beverages"
    ],
    "branches": [
      {
        "area": "NIBM Road, Kondhwa",
        "mapsUrl": "https://maps.app.goo.gl/JKuUNjUMky2NBmfW8",
        "lat": 18.4774151,
        "lng": 73.9097744
      }
    ]
  },
  {
    "name": "Chafa Cafe",
    "tagline": "",
    "cuisines": [
      "Healthy Food",
      "Italian",
      "Continental",
      "Salad",
      "Asian",
      "Cafe",
      "Coffee",
      "Sandwich"
    ],
    "branches": [
      {
        "area": "Koregaon Park",
        "mapsUrl": "https://maps.app.goo.gl/pB6Ztu1xWGyfr83Z6",
        "lat": 18.5366225,
        "lng": 73.8932738
      },
      {
        "area": "Salunkhe Vihar Road",
        "mapsUrl": "https://maps.app.goo.gl/gfiH8FX3XwvKbN8P9",
        "lat": 18.4826972,
        "lng": 73.8922475
      }
    ]
  },
  {
    "name": "Grand Shalimar",
    "tagline": "",
    "cuisines": [
      "North Indian",
      "Kebab",
      "Chinese",
      "Rolls"
    ],
    "branches": [
      {
        "area": "NIBM Road",
        "mapsUrl": "https://maps.app.goo.gl/cASPgFc15gXyC8yg7",
        "lat": 18.4631076,
        "lng": 73.9116173
      }
    ]
  },
  {
    "name": "Arabian Chilies",
    "tagline": "Temporarily closed for dining — back soon!",
    "cuisines": [
      "Mughlai",
      "North Indian",
      "Biryani",
      "Rolls",
      "Chinese",
      "Shawarma",
      "Seafood",
      "Desserts"
    ],
    "branches": [
      {
        "area": "Kausar Bagh",
        "mapsUrl": "https://maps.app.goo.gl/DBT99UKaRk3v1hUQ7"
      }
    ]
  },
  {
    "name": "Bhiwandi Darbar",
    "tagline": "",
    "cuisines": [
      "North Indian",
      "Mughlai",
      "Biryani",
      "Seafood",
      "Chinese",
      "Fast Food",
      "Desserts",
      "Beverages"
    ],
    "branches": [
      {
        "area": "Camp",
        "mapsUrl": "https://maps.app.goo.gl/34TGjBhV1UYH4nhc7",
        "lat": 18.5216239,
        "lng": 73.8717527
      }
    ]
  },
  {
    "name": "The Steam Room Pizzeria",
    "tagline": "",
    "cuisines": [
      "Italian",
      "Pasta",
      "Desserts",
      "Beverages"
    ],
    "branches": [
      {
        "area": "NIBM Road",
        "mapsUrl": "https://maps.app.goo.gl/ZhEBVAdE4h41m2SR9",
        "lat": 18.4631076,
        "lng": 73.9116173
      }
    ]
  }
]