[
  {
    "name": "Liberty Grill",
    "tagline": "Best burgers in Pune",
    "rating": 4.6,
    "reviewCount": 77,
    "cuisines": [
      "Mexican",
      "Salad",
      "Fast Food"
    ],
    "branches": [
      {
        "area": "Wadgaon Sheri",
        "mapsUrl": "https://maps.app.goo.gl/jQJemMwLdQzDRQTeA",
        "lat": 18.548967,
        "lng": 73.9149296
      }
    ]
  },
  {
    "name": "Chai Square",
    "tagline": "",
    "rating": 4.7,
    "reviewCount": 54,
    "cuisines": [
      "Fast Food",
      "Sandwich",
      "Bakery",
      "Tea",
      "Street Food",
      "Burger"
    ],
    "branches": [
      {
        "area": "Wanowrie",
        "mapsUrl": "https://maps.app.goo.gl/vSspirxFbhuG8xb7A",
        "lat": 18.4880464,
        "lng": 73.8937064
      }
    ]
  },
  {
    "name": "Kebabbest",
    "tagline": "",
    "rating": 4.6,
    "reviewCount": 173,
    "cuisines": [
      "Kebab",
      "North Indian"
    ],
    "branches": [
      {
        "area": "Camp",
        "mapsUrl": "https://maps.app.goo.gl/s4TipT9aWp1FvKJX9",
        "lat": 18.5216239,
        "lng": 73.8717527
      }
    ]
  },
  {
    "name": "Klinq",
    "tagline": "",
    "rating": 4.6,
    "reviewCount": 2653,
    "cuisines": [
      "North Indian",
      "European",
      "Asian",
      "Continental",
      "Italian",
      "Lebanese"
    ],
    "branches": [
      {
        "area": "Viman Nagar",
        "mapsUrl": "https://maps.app.goo.gl/XcfSq5WqsMCiAVAd7",
        "lat": 18.5703877,
        "lng": 73.9133336
      }
    ]
  },
  {
    "name": "Sunmoi",
    "tagline": "",
    "rating": 4.4,
    "reviewCount": 1459,
    "cuisines": [
      "Chinese",
      "Thai"
    ],
    "branches": [
      {
        "area": "Dhole Patil Road",
        "mapsUrl": "https://maps.app.goo.gl/CffMmkxcws2QCXGq6",
        "lat": 18.534898,
        "lng": 73.8767171
      }
    ]
  },
  {
    "name": "Chung Fa",
    "tagline": "",
    "rating": 4,
    "reviewCount": 2257,
    "cuisines": [
      "Chinese",
      "Sichuan"
    ],
    "branches": [
      {
        "area": "Camp",
        "mapsUrl": "https://maps.app.goo.gl/FnSPQce2u3ueaGCd7",
        "lat": 18.5216239,
        "lng": 73.8717527
      }
    ]
  },
  {
    "name": "Uncle Chinese",
    "tagline": "",
    "rating": 4.3,
    "reviewCount": 6977,
    "cuisines": [
      "Chinese",
      "Momos",
      "Seafood",
      "Thai",
      "Sichuan",
      "Asian"
    ],
    "branches": [
      {
        "area": "Lullnagar",
        "mapsUrl": "https://maps.app.goo.gl/PztfHLCfwuhiZoLQ7",
        "rating": 4.2,
        "reviewCount": 699
      },
      {
        "area": "Camp",
        "mapsUrl": "https://maps.app.goo.gl/6obUsM4HQ4M4AbmQ7",
        "lat": 18.5216239,
        "lng": 73.8717527,
        "rating": 4.6,
        "reviewCount": 977
      },
      {
        "area": "Bavdhan",
        "mapsUrl": "https://maps.app.goo.gl/68q8pWxeUVtCqRUL9",
        "lat": 18.5209541,
        "lng": 73.7780873,
        "rating": 4.4,
        "reviewCount": 1057
      },
      {
        "area": "Koregaon Park",
        "mapsUrl": "https://maps.app.goo.gl/LEqaan4Miwta8jt6A",
        "lat": 18.5366225,
        "lng": 73.8932738,
        "rating": 4,
        "reviewCount": 2661
      },
      {
        "area": "Viman Nagar",
        "mapsUrl": "https://maps.app.goo.gl/Jnah2jqbBaYK8spa6",
        "lat": 18.5703877,
        "lng": 73.9133336,
        "rating": 4.3,
        "reviewCount": 732
      },
      {
        "area": "Hinjewadi",
        "mapsUrl": "https://maps.app.goo.gl/bXcDKRyWY2BGm96V7",
        "lat": 18.5924098,
        "lng": 73.7607009,
        "rating": 4.7,
        "reviewCount": 851
      }
    ]
  },
  {
    "name": "Pimplico",
    "tagline": "",
    "rating": 4.2,
    "reviewCount": 7516,
    "cuisines": [
      "Cafe",
      "Tea",
      "Italian",
      "Continental",
      "Thai",
      "North Indian",
      "Fast Food"
    ],
    "branches": [
      {
        "area": "Royale Heritage Mall, Mohammadwadi",
        "mapsUrl": "https://maps.app.goo.gl/pr2rxqhwuog3CpzL8",
        "rating": 4.2,
        "reviewCount": 539
      },
      {
        "area": "Koregaon Park",
        "mapsUrl": "https://maps.app.goo.gl/NKYwzQaZNnNpdKmj6",
        "lat": 18.5366225,
        "lng": 73.8932738,
        "rating": 4.2,
        "reviewCount": 4406
      },
      {
        "area": "Kothrud, Erandwane",
        "mapsUrl": "https://maps.app.goo.gl/sSwqCQGS6hApAVzS7",
        "lat": 18.4984773,
        "lng": 73.8191685,
        "rating": 4.1,
        "reviewCount": 2571
      }
    ]
  },
  {
    "name": "Camden Lane",
    "tagline": "",
    "rating": 4.2,
    "reviewCount": 827,
    "cuisines": [
      "Continental",
      "Mexican",
      "Coffee",
      "Tea"
    ],
    "branches": [
      {
        "area": "Koregaon Park",
        "mapsUrl": "https://maps.app.goo.gl/ev3k8SAhDRfRxnAw6",
        "lat": 18.5366225,
        "lng": 73.8932738
      }
    ]
  },
  {
    "name": "Taco Bell",
    "tagline": "",
    "rating": 3.7,
    "reviewCount": 4396,
    "cuisines": [
      "Mexican"
    ],
    "branches": [
      {
        "area": "Deccan Gymkhana",
        "mapsUrl": "https://maps.app.goo.gl/KnMTTPwSpefVsnPp6",
        "lat": 18.5158926,
        "lng": 73.84116,
        "rating": 3.5,
        "reviewCount": 774
      },
      {
        "area": "Seasons Mall",
        "mapsUrl": "https://maps.app.goo.gl/XFGXBABr147Af28o7",
        "lat": 18.5190349,
        "lng": 73.9312884,
        "rating": 3.8,
        "reviewCount": 1869
      },
      {
        "area": "Kalyani Nagar",
        "mapsUrl": "https://maps.app.goo.gl/sTaMBnTitpi9JwrM9",
        "lat": 18.5481382,
        "lng": 73.9025513,
        "rating": 3.7,
        "reviewCount": 203
      },
      {
        "area": "Phoenix Marketcity, Viman Nagar",
        "mapsUrl": "https://maps.app.goo.gl/P6uFXPsTz7xfp1Vo8",
        "lat": 18.5620429,
        "lng": 73.916663,
        "rating": 3.4,
        "reviewCount": 217
      },
      {
        "area": "Westend Mall, Aundh",
        "mapsUrl": "https://maps.app.goo.gl/dRpekWX44J3Kzcih8",
        "lat": 18.5616546,
        "lng": 73.8068193,
        "rating": 3.5,
        "reviewCount": 304
      },
      {
        "area": "Balewadi High St, Laxman Nagar",
        "mapsUrl": "https://maps.app.goo.gl/yvmC9HotSFRrtFtw7",
        "rating": 3.8,
        "reviewCount": 521
      },
      {
        "area": "Pimpri-Chinchwad",
        "mapsUrl": "https://maps.app.goo.gl/R6xZ1uXczg8H3j3B6",
        "lat": 18.6279288,
        "lng": 73.8009829,
        "rating": 3.9,
        "reviewCount": 310
      },
      {
        "area": "Hinjewadi",
        "mapsUrl": "https://maps.app.goo.gl/UUSUvmKmM1QNwe1L8",
        "lat": 18.5924098,
        "lng": 73.7607009,
        "rating": 3.4,
        "reviewCount": 198
      }
    ]
  },
  {
    "name": "Nothing but Chicken",
    "tagline": "",
    "rating": 3.7,
    "reviewCount": 259,
    "cuisines": [
      "Salad",
      "Fast Food",
      "Wraps",
      "Kebab"
    ],
    "branches": [
      {
        "area": "Viman Nagar",
        "mapsUrl": "https://maps.app.goo.gl/1ksndexmANBceuog7",
        "lat": 18.5703877,
        "lng": 73.9133336,
        "rating": 3.8,
        "reviewCount": 118
      },
      {
        "area": "Wanwadi",
        "mapsUrl": "https://maps.app.goo.gl/NZgkZt5aXHH251HD9",
        "lat": 18.4880464,
        "lng": 73.8937064,
        "rating": 3.9,
        "reviewCount": 89
      },
      {
        "area": "Kothrud",
        "mapsUrl": "https://maps.app.goo.gl/um3W8FxMXdDVWSdQ9",
        "lat": 18.5072618,
        "lng": 73.8056676,
        "rating": 2.5,
        "reviewCount": 11
      },
      {
        "area": "Wakad",
        "mapsUrl": "https://maps.app.goo.gl/xiqnPYP8WWeFwyCg8",
        "lat": 18.6022495,
        "lng": 73.7644454,
        "rating": 2.7,
        "reviewCount": 22
      },
      {
        "area": "Baner",
        "mapsUrl": "https://maps.app.goo.gl/mBZJP3X2raBibzwc8",
        "lat": 18.5589937,
        "lng": 73.7845232,
        "rating": 3.6,
        "reviewCount": 19
      }
    ]
  },
  {
    "name": "Marrakesh",
    "tagline": "",
    "rating": 2.6,
    "reviewCount": 35,
    "cuisines": [
      "North Indian",
      "Lebanese",
      "Mughlai",
      "Shawarma",
      "Biryani",
      "Rolls"
    ],
    "branches": [
      {
        "area": "NIBM Road",
        "mapsUrl": "https://www.google.com/maps?q=18.4628302277,73.9127017558",
        "lat": 18.4631076,
        "lng": 73.9116173
      }
    ]
  },
  {
    "name": "Habibi Ya Fatayer",
    "tagline": "",
    "rating": 4.4,
    "reviewCount": 247,
    "cuisines": [
      "Middle Eastern",
      "Asian Fusion",
      "American"
    ],
    "branches": [
      {
        "area": "NIBM Road",
        "mapsUrl": "https://www.google.com/maps/search/Ya+Habibi+Fatayer+NIBM+Road+Pune",
        "lat": 18.4631076,
        "lng": 73.9116173
      }
    ]
  },
  {
    "name": "Kimling",
    "tagline": "",
    "rating": 4,
    "reviewCount": 1112,
    "cuisines": [
      "Chinese"
    ],
    "branches": [
      {
        "area": "Kondhwa",
        "mapsUrl": "https://www.google.com/maps/search/Kimling+Chinese+Restaurant+Kondhwa+Pune",
        "lat": 18.4779905,
        "lng": 73.8940627
      }
    ]
  },
  {
    "name": "Mocha",
    "tagline": "",
    "rating": 4.5,
    "reviewCount": 1973,
    "cuisines": [
      "Chinese",
      "North Indian",
      "Fast Food"
    ],
    "branches": [
      {
        "area": "Salunke Vihar",
        "mapsUrl": "https://www.google.com/maps/search/Mocha+restaurant+Salunke+Vihar+Pune"
      }
    ]
  },
  {
    "name": "Pandan Kitchen",
    "tagline": "",
    "rating": 4.9,
    "reviewCount": 123,
    "cuisines": [
      "Indonesian",
      "Southeast Asian"
    ],
    "branches": [
      {
        "area": "NIBM, Kondhwa",
        "mapsUrl": "https://www.google.com/maps/search/Pandan+Kitchen+NIBM+Road+Kondhwa+Pune",
        "lat": 18.4642045,
        "lng": 73.9029445
      }
    ]
  },
  {
    "name": "Grand Delhi Darbar",
    "tagline": "",
    "rating": 4.2,
    "reviewCount": 4208,
    "cuisines": [
      "Chinese",
      "North Indian",
      "Biryani"
    ],
    "branches": [
      {
        "area": "Camp",
        "mapsUrl": "https://www.google.com/maps/search/Grand+Dilli+Darbar+Camp+Pune",
        "lat": 18.5216239,
        "lng": 73.8717527
      }
    ]
  },
  {
    "name": "Persian Darbar",
    "tagline": "",
    "rating": 4.2,
    "reviewCount": 4045,
    "cuisines": [
      "Persian",
      "Chinese",
      "North Indian"
    ],
    "branches": [
      {
        "area": "Camp",
        "mapsUrl": "https://www.google.com/maps/search/Persian+Darbar+Camp+Pune",
        "lat": 18.5216239,
        "lng": 73.8717527
      }
    ]
  },
  {
    "name": "Gareeb Nawaz",
    "tagline": "",
    "rating": 4.5,
    "reviewCount": 60,
    "cuisines": [
      "North Indian",
      "Mughlai",
      "Biryani",
      "Kebab"
    ],
    "branches": [
      {
        "area": "Kausar Bagh",
        "mapsUrl": "https://www.google.com/maps/search/Gareeb+Nawaz+Kausar+Bagh+Pune"
      }
    ]
  },
  {
    "name": "Grand Darbar",
    "tagline": "",
    "rating": 4.1,
    "reviewCount": 517,
    "cuisines": [
      "North Indian"
    ],
    "branches": [
      {
        "area": "Kausar Bagh",
        "mapsUrl": "https://www.google.com/maps/search/Grand+Darbar+Kausar+Bagh+Pune"
      }
    ]
  },
  {
    "name": "Supreme",
    "tagline": "",
    "rating": 4.2,
    "reviewCount": 582,
    "cuisines": [
      "Chinese",
      "Continental",
      "North Indian"
    ],
    "branches": [
      {
        "area": "Kausar Bagh",
        "mapsUrl": "https://maps.app.goo.gl/SmoAoRzrHeBJAmVh6"
      }
    ]
  },
  {
    "name": "Masala Times",
    "tagline": "",
    "rating": 4.2,
    "reviewCount": 634,
    "cuisines": [
      "North Indian",
      "Chinese",
      "Biryani"
    ],
    "branches": [
      {
        "area": "Camp",
        "mapsUrl": "https://maps.app.goo.gl/MHKbXk7nKFrwsBE76",
        "lat": 18.5216239,
        "lng": 73.8717527
      }
    ]
  },
  {
    "name": "Spice Culture",
    "tagline": "",
    "rating": 4.2,
    "reviewCount": 1319,
    "cuisines": [
      "North Indian",
      "Biryani"
    ],
    "branches": [
      {
        "area": "Kondhwa",
        "mapsUrl": "https://maps.app.goo.gl/xZpKpJbRjooVQMEVA",
        "lat": 18.4779905,
        "lng": 73.8940627
      }
    ]
  },
  {
    "name": "Balsam",
    "tagline": "",
    "rating": 4.3,
    "reviewCount": 646,
    "cuisines": [
      "Continental"
    ],
    "branches": [
      {
        "area": "Kondhwa",
        "mapsUrl": "https://maps.app.goo.gl/xjDhXREV7akTYDLZA",
        "lat": 18.4779905,
        "lng": 73.8940627,
        "rating": 4.3,
        "reviewCount": 323
      },
      {
        "area": "Salunke Vihar Road",
        "mapsUrl": "https://www.google.com/maps/search/Balsam+Cafe+Kitchen+Salunke+Vihar+Road+Pune",
        "rating": 4.3,
        "reviewCount": 323
      }
    ]
  },
  {
    "name": "Arabian Mandi",
    "tagline": "",
    "rating": 4.4,
    "reviewCount": 3211,
    "cuisines": [
      "Middle Eastern",
      "Chinese",
      "Biryani"
    ],
    "branches": [
      {
        "area": "Kausar Bagh",
        "mapsUrl": "https://maps.app.goo.gl/FQQm44XyA46Pxt9LA"
      }
    ]
  },
  {
    "name": "Qehhwa Cafe",
    "tagline": "",
    "rating": 4.5,
    "reviewCount": 392,
    "cuisines": [
      "Cafe",
      "Coffee",
      "Sandwich",
      "Pizza",
      "Pasta"
    ],
    "branches": [
      {
        "area": "NIBM Road, Kondhwa",
        "mapsUrl": "https://maps.app.goo.gl/JKuUNjUMky2NBmfW8",
        "lat": 18.4774151,
        "lng": 73.9097744
      }
    ]
  },
  {
    "name": "Chafa Cafe",
    "tagline": "",
    "rating": 4.2,
    "reviewCount": 2610,
    "cuisines": [
      "Healthy Food",
      "Italian",
      "Continental",
      "Salad",
      "Asian",
      "Cafe",
      "Coffee",
      "Sandwich"
    ],
    "branches": [
      {
        "area": "Koregaon Park",
        "mapsUrl": "https://maps.app.goo.gl/pB6Ztu1xWGyfr83Z6",
        "lat": 18.5366225,
        "lng": 73.8932738,
        "rating": 4.2,
        "reviewCount": 2193
      },
      {
        "area": "Salunkhe Vihar Road",
        "mapsUrl": "https://maps.app.goo.gl/gfiH8FX3XwvKbN8P9",
        "lat": 18.4826972,
        "lng": 73.8922475,
        "rating": 4.4,
        "reviewCount": 417
      }
    ]
  },
  {
    "name": "Grand Shalimar",
    "tagline": "",
    "rating": 4.5,
    "reviewCount": 585,
    "cuisines": [
      "North Indian",
      "Kebab",
      "Chinese",
      "Rolls"
    ],
    "branches": [
      {
        "area": "NIBM Road",
        "mapsUrl": "https://maps.app.goo.gl/cASPgFc15gXyC8yg7",
        "lat": 18.4631076,
        "lng": 73.9116173
      }
    ]
  },
  {
    "name": "Arabian Chilies",
    "tagline": "Temporarily closed for dining — back soon!",
    "rating": 4.2,
    "reviewCount": 538,
    "cuisines": [
      "Mughlai",
      "North Indian",
      "Biryani",
      "Rolls",
      "Chinese",
      "Shawarma",
      "Seafood"
    ],
    "branches": [
      {
        "area": "Kausar Bagh",
        "mapsUrl": "https://maps.app.goo.gl/DBT99UKaRk3v1hUQ7"
      }
    ]
  },
  {
    "name": "Bhiwandi Darbar",
    "tagline": "",
    "rating": 4.1,
    "reviewCount": 1770,
    "cuisines": [
      "North Indian",
      "Mughlai",
      "Biryani",
      "Seafood",
      "Chinese",
      "Fast Food"
    ],
    "branches": [
      {
        "area": "Camp",
        "mapsUrl": "https://maps.app.goo.gl/34TGjBhV1UYH4nhc7",
        "lat": 18.5216239,
        "lng": 73.8717527
      }
    ]
  },
  {
    "name": "The Steam Room Pizzeria",
    "tagline": "",
    "rating": 4.3,
    "reviewCount": 41,
    "cuisines": [
      "Italian",
      "Pasta"
    ],
    "branches": [
      {
        "area": "NIBM Road",
        "mapsUrl": "https://maps.app.goo.gl/ZhEBVAdE4h41m2SR9",
        "lat": 18.4631076,
        "lng": 73.9116173
      }
    ]
  },
  {
    "name": "Badshah",
    "tagline": "",
    "cuisines": [
      "North Indian",
      "South Indian",
      "Pizza",
      "Italian",
      "Sandwich",
      "Street Food"
    ],
    "branches": [
      {
        "area": "Camp",
        "mapsUrl": "https://www.google.com/maps/search/Badshah+Restaurant+Camp+Pune",
        "lat": 18.5216239,
        "lng": 73.8717527
      }
    ],
    "rating": 4
  },
  {
    "name": "George Restaurant",
    "tagline": "",
    "cuisines": [
      "North Indian",
      "Biryani",
      "Chinese",
      "Mughlai",
      "Continental",
      "Kebab"
    ],
    "branches": [
      {
        "area": "Camp",
        "mapsUrl": "https://www.google.com/maps/search/George+Restaurant+Camp+Pune",
        "lat": 18.5216239,
        "lng": 73.8717527
      }
    ],
    "rating": 4.2
  },
  {
    "name": "Yana Sizzler",
    "tagline": "",
    "cuisines": [
      "Chinese",
      "Salad",
      "BBQ",
      "Seafood",
      "Jamaican"
    ],
    "branches": [
      {
        "area": "Camp",
        "mapsUrl": "https://www.google.com/maps/search/Yana+Sizzler+Camp+Pune",
        "lat": 18.5216239,
        "lng": 73.8717527,
        "rating": 4.2,
        "reviewCount": 2271
      },
      {
        "area": "Koregaon Park",
        "mapsUrl": "https://www.google.com/maps/search/Yana+Sizzler+Koregaon+Park+Pune",
        "lat": 18.5366225,
        "lng": 73.8932738,
        "rating": 4.2,
        "reviewCount": 2074
      },
      {
        "area": "FC Road",
        "mapsUrl": "https://www.google.com/maps/search/Yana+Sizzler+FC+Road+Pune",
        "lat": 18.5150117,
        "lng": 73.8422183,
        "rating": 4.2,
        "reviewCount": 9953
      },
      {
        "area": "Baner",
        "mapsUrl": "https://www.google.com/maps/search/Yana+Sizzler+Baner+Pune",
        "lat": 18.5589937,
        "lng": 73.7845232,
        "rating": 4.3,
        "reviewCount": 431
      }
    ],
    "rating": 4.2,
    "reviewCount": 14729
  },
  {
    "name": "Shawarma.co - Lassi Wassi",
    "tagline": "",
    "cuisines": [
      "Shawarma",
      "Sandwich",
      "Fast Food"
    ],
    "branches": [
      {
        "area": "Kothrud",
        "mapsUrl": "https://www.google.com/maps/search/Shawarma.co+Lassi+Wassi+Kothrud+Pune",
        "lat": 18.5072618,
        "lng": 73.8056676,
        "rating": 4.2
      },
      {
        "area": "Salunke Vihar Road",
        "mapsUrl": "https://www.google.com/maps/search/Shawarma.co+Lassi+Wassi+Salunke+Vihar+Pune",
        "rating": 4.2
      },
      {
        "area": "Anand Nagar",
        "mapsUrl": "https://www.google.com/maps/search/Shawarma.co+Lassi+Wassi+Anand+Nagar+Pune",
        "lat": 18.4782576,
        "lng": 73.823807,
        "rating": 4.2
      },
      {
        "area": "Dhankawadi",
        "mapsUrl": "https://www.google.com/maps/search/Shawarma.co+Lassi+Wassi+Dhankawadi+Pune",
        "lat": 18.4654198,
        "lng": 73.850152,
        "rating": 4.2
      },
      {
        "area": "Koregaon Park",
        "mapsUrl": "https://www.google.com/maps/search/Shawarma.co+Lassi+Wassi+Koregaon+Park+Pune",
        "lat": 18.5366225,
        "lng": 73.8932738,
        "rating": 4.2
      }
    ],
    "rating": 4.2
  },
  {
    "name": "Blue Nile",
    "tagline": "",
    "cuisines": [
      "North Indian",
      "Mughlai",
      "Chinese",
      "Fast Food",
      "Biryani"
    ],
    "branches": [
      {
        "area": "Camp",
        "mapsUrl": "https://www.google.com/maps/search/Blue+Nile+Restaurant+Camp+Pune",
        "lat": 18.5216239,
        "lng": 73.8717527
      }
    ],
    "rating": 4.1
  },
  {
    "name": "Shahi Dawat",
    "tagline": "",
    "cuisines": [
      "North Indian",
      "Mughlai",
      "Chinese"
    ],
    "branches": [
      {
        "area": "Camp",
        "mapsUrl": "https://www.google.com/maps/search/Shahi+Dawat+Camp+Pune",
        "lat": 18.5216239,
        "lng": 73.8717527
      }
    ],
    "rating": 4.3
  },
  {
    "name": "Butterwala and Co.",
    "tagline": "",
    "cuisines": [
      "North Indian",
      "Bakery",
      "Fast Food",
      "Tea",
      "Street Food",
      "Sandwich",
      "Biryani",
      "Rolls"
    ],
    "branches": [
      {
        "area": "Salunke Vihar Road",
        "mapsUrl": "https://www.google.com/maps/search/Butterwala+and+Co+Salunke+Vihar+Road+Pune"
      }
    ],
    "rating": 4.2
  },
  {
    "name": "Salt",
    "tagline": "",
    "cuisines": [
      "Fast Food",
      "Sandwich",
      "Pizza",
      "Pasta",
      "Burger",
      "North Indian",
      "South Indian"
    ],
    "branches": [
      {
        "area": "Salunke Vihar Road",
        "mapsUrl": "https://www.google.com/maps/search/Salt+Restaurant+Salunke+Vihar+Road+Pune"
      }
    ],
    "rating": 4.2
  },
  {
    "name": "Irani Cafe",
    "tagline": "",
    "cuisines": [
      "Sandwich",
      "Iranian",
      "Fast Food",
      "Bakery"
    ],
    "branches": [
      {
        "area": "Camp",
        "mapsUrl": "https://www.google.com/maps/search/Irani+Cafe+Camp+Pune",
        "lat": 18.5216239,
        "lng": 73.8717527,
        "rating": 4.2,
        "reviewCount": 4641
      },
      {
        "area": "Deccan Gymkhana",
        "mapsUrl": "https://www.google.com/maps/search/Irani+Cafe+Deccan+Gymkhana+Pune",
        "lat": 18.5158926,
        "lng": 73.84116,
        "rating": 4.2,
        "reviewCount": 7520
      },
      {
        "area": "Senapati Bapat Road",
        "mapsUrl": "https://www.google.com/maps/search/Irani+Cafe+Senapati+Bapat+Road+Pune",
        "rating": 3.8,
        "reviewCount": 362
      },
      {
        "area": "Koregaon Park",
        "mapsUrl": "https://www.google.com/maps/search/Irani+Cafe+Koregaon+Park+Pune",
        "lat": 18.5366225,
        "lng": 73.8932738,
        "rating": 3.9,
        "reviewCount": 972
      },
      {
        "area": "Karve Nagar",
        "mapsUrl": "https://www.google.com/maps/search/Irani+Cafe+Karve+Nagar+Pune",
        "lat": 18.4894205,
        "lng": 73.821347,
        "rating": 3.9,
        "reviewCount": 2412
      },
      {
        "area": "Singhad Road",
        "mapsUrl": "https://www.google.com/maps/search/Irani+Cafe+Singhad+Road+Pune",
        "rating": 4,
        "reviewCount": 358
      },
      {
        "area": "Kalyani Nagar",
        "mapsUrl": "https://www.google.com/maps/search/Irani+Cafe+Kalyani+Nagar+Pune",
        "lat": 18.5481382,
        "lng": 73.9025513,
        "rating": 4.2,
        "reviewCount": 7498
      },
      {
        "area": "Katraj",
        "mapsUrl": "https://www.google.com/maps/search/Irani+Cafe+Katraj+Pune",
        "lat": 18.4536792,
        "lng": 73.8563196,
        "rating": 3.2,
        "reviewCount": 241
      },
      {
        "area": "NIBM Road",
        "mapsUrl": "https://www.google.com/maps/search/Irani+Cafe+NIBM+Road+Pune",
        "lat": 18.4770994,
        "lng": 73.8991249,
        "rating": 4.1,
        "reviewCount": 2057
      }
    ],
    "rating": 4.1,
    "reviewCount": 26061
  },
  {
    "name": "Cream Craver",
    "tagline": "",
    "cuisines": [
      "North Indian",
      "Chinese",
      "Sandwich",
      "Fast Food",
      "Street Food",
      "Shawarma"
    ],
    "branches": [
      {
        "area": "Camp",
        "mapsUrl": "https://www.google.com/maps/search/Cream+Craver+Camp+Pune",
        "lat": 18.5216239,
        "lng": 73.8717527
      }
    ],
    "rating": 4
  },
  {
    "name": "Miya Kebabs",
    "tagline": "",
    "cuisines": [
      "North Indian",
      "Kebab",
      "Shawarma"
    ],
    "branches": [
      {
        "area": "Koregaon Park",
        "mapsUrl": "https://www.google.com/maps/search/Miya+Kebabs+Koregaon+Park+Pune",
        "lat": 18.5366225,
        "lng": 73.8932738
      }
    ],
    "rating": 4.5
  },
  {
    "name": "Bombay Seekh Parathas",
    "tagline": "",
    "cuisines": [
      "Mughlai",
      "Kebab"
    ],
    "branches": [
      {
        "area": "Kausar Bagh",
        "mapsUrl": "https://www.google.com/maps/search/Bombay+Seekh+Parathas+Kausar+Bagh+Pune"
      }
    ],
    "rating": 4.2
  },
  {
    "name": "Signature",
    "tagline": "",
    "cuisines": [
      "North Indian",
      "Chinese",
      "Sichuan",
      "Continental",
      "Kebab",
      "Seafood"
    ],
    "branches": [
      {
        "area": "Lullanagar",
        "mapsUrl": "https://www.google.com/maps/search/Signature+Restaurant+Lullanagar+Pune",
        "lat": 18.4820771,
        "lng": 73.8849644
      }
    ],
    "rating": 4.2
  },
  {
    "name": "Olympia Kathi Kabab",
    "tagline": "",
    "cuisines": [
      "Rolls"
    ],
    "branches": [
      {
        "area": "East Street, Camp",
        "mapsUrl": "https://www.google.com/maps/search/Olympia+Kathi+Kabab+East+Street+Camp+Pune"
      }
    ],
    "rating": 4.3
  },
  {
    "name": "Al Di La Restaurant",
    "tagline": "",
    "cuisines": [
      "Italian"
    ],
    "branches": [
      {
        "area": "Bund Garden Road",
        "mapsUrl": "https://www.google.com/maps/search/Al+Di+La+Restaurant+Bund+Garden+Road+Pune",
        "lat": 18.5347175,
        "lng": 73.879556
      }
    ],
    "rating": 4.4
  },
  {
    "name": "Jashn",
    "tagline": "",
    "cuisines": [
      "North Indian",
      "Biryani",
      "Continental",
      "Chinese",
      "Fast Food",
      "Oriental"
    ],
    "branches": [
      {
        "area": "Salunke Vihar Road",
        "mapsUrl": "https://www.google.com/maps/search/Jashn+Restaurant+Salunke+Vihar+Road+Pune"
      }
    ],
    "rating": 4
  },
  {
    "name": "Cafe Yezdan",
    "tagline": "",
    "cuisines": [
      "Fast Food",
      "Street Food"
    ],
    "branches": [
      {
        "area": "Camp",
        "mapsUrl": "https://www.google.com/maps/search/Cafe+Yezdan+Camp+Pune",
        "lat": 18.5216239,
        "lng": 73.8717527,
        "rating": 4.2,
        "reviewCount": 1685
      },
      {
        "area": "NIBM Road",
        "mapsUrl": "https://www.google.com/maps/search/Cafe+Yezdan+NIBM+Road+Pune",
        "lat": 18.4770994,
        "lng": 73.8991249,
        "rating": 4,
        "reviewCount": 112
      }
    ],
    "rating": 4.2,
    "reviewCount": 1797
  },
  {
    "name": "Akhtar's Samosa",
    "tagline": "",
    "cuisines": [
      "Street Food"
    ],
    "branches": [
      {
        "area": "Camp",
        "mapsUrl": "https://www.google.com/maps/search/Akhtars+Samosa+Camp+Pune",
        "lat": 18.5216239,
        "lng": 73.8717527
      }
    ],
    "rating": 4.1
  },
  {
    "name": "Burger King (Camp Burger)",
    "tagline": "",
    "cuisines": [
      "Burger",
      "Fast Food"
    ],
    "branches": [
      {
        "area": "East Street, Camp",
        "mapsUrl": "https://www.google.com/maps/search/Burger+King+Camp+Burger+East+Street+Pune"
      }
    ],
    "rating": 4.3
  },
  {
    "name": "The Place - Touche The Sizzler",
    "tagline": "",
    "cuisines": [
      "Continental"
    ],
    "branches": [
      {
        "area": "Camp",
        "mapsUrl": "https://www.google.com/maps/search/The+Place+Touche+The+Sizzler+Camp+Pune",
        "lat": 18.5216239,
        "lng": 73.8717527
      }
    ],
    "rating": 4.2
  },
  {
    "name": "Paasha - JW Marriott Pune",
    "tagline": "",
    "cuisines": [
      "North Indian",
      "Kebab"
    ],
    "branches": [
      {
        "area": "Senapati Bapat Road",
        "mapsUrl": "https://www.google.com/maps/search/Paasha+JW+Marriott+Pune+Senapati+Bapat+Road"
      }
    ],
    "rating": 4.5
  },
  {
    "name": "Spice Kitchen - JW Marriott Pune",
    "tagline": "",
    "cuisines": [
      "Italian",
      "Asian",
      "North Indian",
      "South Indian",
      "European"
    ],
    "branches": [
      {
        "area": "Senapati Bapat Road",
        "mapsUrl": "https://www.google.com/maps/search/Spice+Kitchen+JW+Marriott+Pune+Senapati+Bapat+Road"
      }
    ],
    "rating": 4.5
  },
  {
    "name": "Tao Fu - JW Marriott Pune",
    "tagline": "",
    "cuisines": [
      "Chinese",
      "Asian"
    ],
    "branches": [
      {
        "area": "Senapati Bapat Road",
        "mapsUrl": "https://www.google.com/maps/search/Tao+Fu+JW+Marriott+Pune+Senapati+Bapat+Road"
      }
    ],
    "rating": 4.6
  },
  {
    "name": "Aasmana - The Ritz-Carlton Pune",
    "tagline": "",
    "cuisines": [
      "North Indian",
      "Kebab",
      "Biryani",
      "Mughlai",
      "Seafood"
    ],
    "branches": [
      {
        "area": "Yerawada",
        "mapsUrl": "https://www.google.com/maps/search/Aasmana+Ritz+Carlton+Pune+Yerawada",
        "lat": 18.5656319,
        "lng": 73.8865762
      }
    ],
    "rating": 4.5
  },
  {
    "name": "TG's - The Oriental Grill",
    "tagline": "",
    "cuisines": [
      "Oriental",
      "Thai",
      "Asian",
      "Chinese"
    ],
    "branches": [
      {
        "area": "Kalyani Nagar",
        "mapsUrl": "https://www.google.com/maps/search/TGs+The+Oriental+Grill+Kalyani+Nagar+Pune",
        "lat": 18.5481382,
        "lng": 73.9025513
      }
    ],
    "rating": 4.4
  },
  {
    "name": "2BHK Diner & Key Club",
    "tagline": "",
    "cuisines": [
      "North Indian",
      "Mediterranean",
      "European",
      "Italian",
      "American"
    ],
    "branches": [
      {
        "area": "Bund Garden Road",
        "mapsUrl": "https://www.google.com/maps/search/2BHK+Diner+Key+Club+Bund+Garden+Road+Pune",
        "lat": 18.5347175,
        "lng": 73.879556
      }
    ],
    "rating": 4.3
  },
  {
    "name": "Acai",
    "tagline": "",
    "cuisines": [
      "North Indian",
      "Continental",
      "Italian",
      "Pizza"
    ],
    "branches": [
      {
        "area": "Dhole Patil Road",
        "mapsUrl": "https://www.google.com/maps/search/Acai+Restaurant+Dhole+Patil+Road+Pune",
        "lat": 18.534898,
        "lng": 73.8767171
      }
    ],
    "rating": 4.3
  },
  {
    "name": "Millers - The Luxury Club",
    "tagline": "",
    "cuisines": [
      "Continental",
      "North Indian",
      "Fast Food",
      "Biryani"
    ],
    "branches": [
      {
        "area": "Bund Garden Road",
        "mapsUrl": "https://www.google.com/maps/search/Millers+The+Luxury+Club+Bund+Garden+Road+Pune",
        "lat": 18.5347175,
        "lng": 73.879556
      }
    ],
    "rating": 4.1
  },
  {
    "name": "Epitome",
    "tagline": "",
    "cuisines": [
      "North Indian",
      "Asian",
      "Italian",
      "Chinese",
      "Fast Food"
    ],
    "branches": [
      {
        "area": "Bund Garden Road",
        "mapsUrl": "https://www.google.com/maps/search/Epitome+Restaurant+Bund+Garden+Road+Pune",
        "lat": 18.5347175,
        "lng": 73.879556
      }
    ],
    "rating": 4.1,
    "isVeg": true
  },
  {
    "name": "Kukoo",
    "tagline": "",
    "cuisines": [
      "Continental",
      "Asian",
      "Italian",
      "Salad"
    ],
    "branches": [
      {
        "area": "Sangamvadi",
        "mapsUrl": "https://www.google.com/maps/search/Kukoo+Restaurant+Sangamvadi+Pune"
      }
    ],
    "rating": 4.2
  },
  {
    "name": "The Game Palacio",
    "tagline": "",
    "cuisines": [
      "Pizza",
      "Asian",
      "Italian"
    ],
    "branches": [
      {
        "area": "Bund Garden Road",
        "mapsUrl": "https://www.google.com/maps/search/The+Game+Palacio+Bund+Garden+Road+Pune",
        "lat": 18.5347175,
        "lng": 73.879556
      }
    ],
    "rating": 4.5,
    "reviewCount": 719
  },
  {
    "name": "Shisha Jazz Cafe",
    "tagline": "",
    "cuisines": [
      "Continental",
      "Fast Food",
      "Salad",
      "Iranian",
      "North Indian",
      "Seafood"
    ],
    "branches": [
      {
        "area": "Dhole Patil Road",
        "mapsUrl": "https://www.google.com/maps/search/Shisha+Jazz+Cafe+Dhole+Patil+Road+Pune",
        "lat": 18.534898,
        "lng": 73.8767171
      }
    ],
    "rating": 4.3
  },
  {
    "name": "Di Mora",
    "tagline": "",
    "cuisines": [
      "North Indian",
      "Chinese",
      "Italian"
    ],
    "branches": [
      {
        "area": "Dhole Patil Road",
        "mapsUrl": "https://www.google.com/maps/search/Di+Mora+Dhole+Patil+Road+Pune",
        "lat": 18.534898,
        "lng": 73.8767171
      }
    ],
    "rating": 4.2
  },
  {
    "name": "Latitude - Blue Diamond",
    "tagline": "",
    "cuisines": [
      "North Indian",
      "Mediterranean",
      "Italian",
      "European"
    ],
    "branches": [
      {
        "area": "Koregaon Park",
        "mapsUrl": "https://www.google.com/maps/search/Latitude+Blue+Diamond+Hotel+Koregaon+Park+Pune",
        "lat": 18.5366225,
        "lng": 73.8932738
      }
    ],
    "rating": 4.3
  },
  {
    "name": "Chingari - Sheraton Grand Pune",
    "tagline": "",
    "cuisines": [
      "North Indian",
      "Mughlai",
      "Kebab",
      "Seafood"
    ],
    "branches": [
      {
        "area": "Bund Garden Road",
        "mapsUrl": "https://www.google.com/maps/search/Chingari+Sheraton+Grand+Pune+Bund+Garden+Road",
        "lat": 18.5347175,
        "lng": 73.879556
      }
    ],
    "rating": 4.1
  },
  {
    "name": "The Lobby @ Sheraton Cafe",
    "tagline": "",
    "cuisines": [
      "Cafe",
      "Fast Food"
    ],
    "branches": [
      {
        "area": "Bund Garden Road",
        "mapsUrl": "https://www.google.com/maps/search/The+Lobby+Sheraton+Grand+Pune+Bund+Garden+Road",
        "lat": 18.5347175,
        "lng": 73.879556
      }
    ],
    "rating": 4.4,
    "reviewCount": 153
  },
  {
    "name": "The Market - The Westin Pune",
    "tagline": "",
    "cuisines": [
      "North Indian",
      "European",
      "Asian"
    ],
    "branches": [
      {
        "area": "Mundhwa",
        "mapsUrl": "https://www.google.com/maps/search/The+Market+Westin+Pune+Mundhwa",
        "lat": 18.5343218,
        "lng": 73.9298264
      }
    ],
    "rating": 4.4
  },
  {
    "name": "Aafreen - The Westin Pune",
    "tagline": "",
    "cuisines": [
      "North Indian",
      "Mughlai"
    ],
    "branches": [
      {
        "area": "Mundhwa",
        "mapsUrl": "https://www.google.com/maps/search/Aafreen+Westin+Pune+Mundhwa",
        "lat": 18.5343218,
        "lng": 73.9298264
      }
    ],
    "rating": 4
  },
  {
    "name": "Masu - Conrad Pune",
    "tagline": "",
    "cuisines": [
      "Asian"
    ],
    "branches": [
      {
        "area": "Dhole Patil Road",
        "mapsUrl": "https://www.google.com/maps/search/Masu+Conrad+Pune+Dhole+Patil+Road",
        "lat": 18.534898,
        "lng": 73.8767171
      }
    ],
    "rating": 4.4
  },
  {
    "name": "Kabana - Conrad Pune",
    "tagline": "",
    "cuisines": [
      "Continental",
      "Italian",
      "North Indian",
      "Asian"
    ],
    "branches": [
      {
        "area": "Sangamvadi",
        "mapsUrl": "https://www.google.com/maps/search/Kabana+Conrad+Pune+Sangamvadi"
      }
    ],
    "rating": 4.7
  },
  {
    "name": "Pune Sugar Box - Conrad Pune",
    "tagline": "",
    "cuisines": [
      "Cafe"
    ],
    "branches": [
      {
        "area": "Bund Garden Road",
        "mapsUrl": "https://www.google.com/maps/search/Pune+Sugar+Box+Conrad+Pune+Bund+Garden+Road",
        "lat": 18.5347175,
        "lng": 73.879556
      }
    ],
    "rating": 4.5
  },
  {
    "name": "Zeeshan Restaurant - Apna Hyderabadi Food",
    "tagline": "Authentic Hyderabadi flavours — biryani, mandi & more",
    "cuisines": [
      "Biryani",
      "Kebab",
      "Mandi",
      "Mughlai",
      "Seafood"
    ],
    "branches": [
      {
        "area": "Viman Nagar",
        "mapsUrl": "https://www.google.com/maps/search/Zeeshan+Restaurant+Apna+Hyderabadi+Food+Viman+Nagar+Pune"
      }
    ],
    "rating": 3.9,
    "reviewCount": 5523
  }
]